<?xml version="1.0" encoding="utf-8"?>
<OSMViewerCenterPoints>
    <CenterPoints>
        <Groups>
            <Group>
                <Name>World Capital Cities</Name>
                <Points>
                    <Point>
                        <Name>Abu Dhabi (United Arab Emirates)</Name>
                        <Level>12</Level>
                        <Latitude>24.453884</Latitude>
                        <Longitude>54.377344</Longitude>
                    </Point>
                    <Point>
                        <Name>Abuja (Nigeria)</Name>
                        <Level>12</Level>
                        <Latitude>9.076479</Latitude>
                        <Longitude>7.398574</Longitude>
                    </Point>
                    <Point>
                        <Name>Accra (Ghana)</Name>
                        <Level>12</Level>
                        <Latitude>5.603717</Latitude>
                        <Longitude>-0.186964</Longitude>
                    </Point>
                    <Point>
                        <Name>Addis Ababa (Ethiopia)</Name>
                        <Level>11</Level>
                        <Latitude>8.980603</Latitude>
                        <Longitude>38.757761</Longitude>
                    </Point>
                    <Point>
                        <Name>Algiers (Algeria)</Name>
                        <Level>11</Level>
                        <Latitude>36.7529</Latitude>
                        <Longitude>3.042</Longitude>
                    </Point>
                    <Point>
                        <Name>Amman (Jordan)</Name>
                        <Level>12</Level>
                        <Latitude>31.945367</Latitude>
                        <Longitude>35.928372</Longitude>
                    </Point>
                    <Point>
                        <Name>Amsterdam (Netherlands)</Name>
                        <Level>11</Level>
                        <Latitude>52.370216</Latitude>
                        <Longitude>4.895168</Longitude>
                    </Point>
                    <Point>
                        <Name>Andorra la Vella (Andorra)</Name>
                        <Level>14</Level>
                        <Latitude>42.5</Latitude>
                        <Longitude>1.5</Longitude>
                    </Point>
                    <Point>
                        <Name>Ankara (Turkey)</Name>
                        <Level>11</Level>
                        <Latitude>39.925533</Latitude>
                        <Longitude>32.866287</Longitude>
                    </Point>
                    <Point>
                        <Name>Antananarivo (Madagascar)</Name>
                        <Level>12</Level>
                        <Latitude>-18.87919</Latitude>
                        <Longitude>47.507905</Longitude>
                    </Point>
                    <Point>
                        <Name>Apia (Samoa)</Name>
                        <Level>14</Level>
                        <Latitude>-13.8361630556</Latitude>
                        <Longitude>-171.7689227778</Longitude>
                    </Point>
                    <Point>
                        <Name>Ashgabat (Turkmenistan)</Name>
                        <Level>12</Level>
                        <Latitude>37.960077</Latitude>
                        <Longitude>58.326063</Longitude>
                    </Point>
                    <Point>
                        <Name>Asmara (Eritrea)</Name>
                        <Level>13</Level>
                        <Latitude>15.322877</Latitude>
                        <Longitude>38.925052</Longitude>
                    </Point>
                    <Point>
                        <Name>Astana (Kazakhstan)</Name>
                        <Level>11</Level>
                        <Latitude>51.1666666667</Latitude>
                        <Longitude>71.4333333333</Longitude>
                    </Point>
                    <Point>
                        <Name>Asunción (Paraguay)</Name>
                        <Level>11</Level>
                        <Latitude>-25.26374</Latitude>
                        <Longitude>-57.575926</Longitude>
                    </Point>
                    <Point>
                        <Name>Athens (Greece)</Name>
                        <Level>11</Level>
                        <Latitude>37.9839722222</Latitude>
                        <Longitude>23.7278055556</Longitude>
                    </Point>
                    <Point>
                        <Name>Baghdad (Iraq)</Name>
                        <Level>11</Level>
                        <Latitude>33.312806</Latitude>
                        <Longitude>44.361488</Longitude>
                    </Point>
                    <Point>
                        <Name>Baku (Azerbaijan)</Name>
                        <Level>12</Level>
                        <Latitude>40.3944444444</Latitude>
                        <Longitude>49.8819444444</Longitude>
                    </Point>
                    <Point>
                        <Name>Bamako (Mali)</Name>
                        <Level>12</Level>
                        <Latitude>12.639232</Latitude>
                        <Longitude>-8.002889</Longitude>
                    </Point>
                    <Point>
                        <Name>Bandar Seri Begawan (Brunei)</Name>
                        <Level>12</Level>
                        <Latitude>4.903052</Latitude>
                        <Longitude>114.939821</Longitude>
                    </Point>
                    <Point>
                        <Name>Bangkok (Thailand)</Name>
                        <Level>11</Level>
                        <Latitude>13.756331</Latitude>
                        <Longitude>100.501765</Longitude>
                    </Point>
                    <Point>
                        <Name>Bangui (Central African Republic)</Name>
                        <Level>12</Level>
                        <Latitude>4.394673</Latitude>
                        <Longitude>18.55819</Longitude>
                    </Point>
                    <Point>
                        <Name>Banjul (Gambia)</Name>
                        <Level>15</Level>
                        <Latitude>13.454876</Latitude>
                        <Longitude>-16.579032</Longitude>
                    </Point>
                    <Point>
                        <Name>Basseterre (Saint Kitts and Nevis)</Name>
                        <Level>14</Level>
                        <Latitude>17.302606</Latitude>
                        <Longitude>-62.717692</Longitude>
                    </Point>
                    <Point>
                        <Name>Beijing (China)</Name>
                        <Level>11</Level>
                        <Latitude>39.9042</Latitude>
                        <Longitude>116.407396</Longitude>
                    </Point>
                    <Point>
                        <Name>Beirut (Lebanon)</Name>
                        <Level>12</Level>
                        <Latitude>33.893791</Latitude>
                        <Longitude>35.501777</Longitude>
                    </Point>
                    <Point>
                        <Name>Belgrade (Serbia)</Name>
                        <Level>11</Level>
                        <Latitude>44.786568</Latitude>
                        <Longitude>20.4489216</Longitude>
                    </Point>
                    <Point>
                        <Name>Belmopan (Belize)</Name>
                        <Level>14</Level>
                        <Latitude>17.251011</Latitude>
                        <Longitude>-88.75902</Longitude>
                    </Point>
                    <Point>
                        <Name>Berlin (Germany)</Name>
                        <Level>11</Level>
                        <Latitude>52.5166666667</Latitude>
                        <Longitude>13.4</Longitude>
                    </Point>
                    <Point>
                        <Name>Bern (Switzerland)</Name>
                        <Level>12</Level>
                        <Latitude>46.947922</Latitude>
                        <Longitude>7.444608</Longitude>
                    </Point>
                    <Point>
                        <Name>Bishkek (Kyrgyzstan)</Name>
                        <Level>12</Level>
                        <Latitude>42.874621</Latitude>
                        <Longitude>74.569762</Longitude>
                    </Point>
                    <Point>
                        <Name>Bissau (Guinea-Bissau)</Name>
                        <Level>13</Level>
                        <Latitude>11.881655</Latitude>
                        <Longitude>-15.617794</Longitude>
                    </Point>
                    <Point>
                        <Name>Bloemfontein (judicial) (South Africa)</Name>
                        <Level>12</Level>
                        <Latitude>-29.1188743462</Latitude>
                        <Longitude>26.2154388428</Longitude>
                    </Point>
                    <Point>
                        <Name>Bogotá (Colombia)</Name>
                        <Level>11</Level>
                        <Latitude>4.710989</Latitude>
                        <Longitude>-74.072092</Longitude>
                    </Point>
                    <Point>
                        <Name>Brasilia (Brazil)</Name>
                        <Level>11</Level>
                        <Latitude>-15.794157</Latitude>
                        <Longitude>-47.882529</Longitude>
                    </Point>
                    <Point>
                        <Name>Bratislava (Slovakia)</Name>
                        <Level>12</Level>
                        <Latitude>48.1438888889</Latitude>
                        <Longitude>17.1097222222</Longitude>
                    </Point>
                    <Point>
                        <Name>Brazzaville (Republic of the Congo)</Name>
                        <Level>12</Level>
                        <Latitude>-4.26336</Latitude>
                        <Longitude>15.242885</Longitude>
                    </Point>
                    <Point>
                        <Name>Bridgetown (Barbados)</Name>
                        <Level>13</Level>
                        <Latitude>13.096851</Latitude>
                        <Longitude>-59.614482</Longitude>
                    </Point>
                    <Point>
                        <Name>Brussels (Belgium)</Name>
                        <Level>12</Level>
                        <Latitude>50.8333333333</Latitude>
                        <Longitude>4.35</Longitude>
                    </Point>
                    <Point>
                        <Name>Bucharest (Romania)</Name>
                        <Level>11</Level>
                        <Latitude>44.439663</Latitude>
                        <Longitude>26.096306</Longitude>
                    </Point>
                    <Point>
                        <Name>Budapest (Hungary)</Name>
                        <Level>12</Level>
                        <Latitude>47.4719444444</Latitude>
                        <Longitude>19.0502777778</Longitude>
                    </Point>
                    <Point>
                        <Name>Buenos Aires (Argentina)</Name>
                        <Level>10</Level>
                        <Latitude>-34.603722</Latitude>
                        <Longitude>-58.381592</Longitude>
                    </Point>
                    <Point>
                        <Name>Bujumbura (Burundi)</Name>
                        <Level>12</Level>
                        <Latitude>-3.361378</Latitude>
                        <Longitude>29.359878</Longitude>
                    </Point>
                    <Point>
                        <Name>Cairo (Egypt)</Name>
                        <Level>11</Level>
                        <Latitude>30.04442</Latitude>
                        <Longitude>31.235712</Longitude>
                    </Point>
                    <Point>
                        <Name>Canberra (Australia)</Name>
                        <Level>11</Level>
                        <Latitude>-35.296623</Latitude>
                        <Longitude>149.129822</Longitude>
                    </Point>
                    <Point>
                        <Name>Cape Town (legislative) (South Africa)</Name>
                        <Level>11</Level>
                        <Latitude>-33.924869</Latitude>
                        <Longitude>18.424055</Longitude>
                    </Point>
                    <Point>
                        <Name>Caracas (Venezuela)</Name>
                        <Level>13</Level>
                        <Latitude>10.480594</Latitude>
                        <Longitude>-66.903606</Longitude>
                    </Point>
                    <Point>
                        <Name>Castries (Saint Lucia)</Name>
                        <Level>15</Level>
                        <Latitude>14.010109</Latitude>
                        <Longitude>-60.987469</Longitude>
                    </Point>
                    <Point>
                        <Name>Chisinau (Moldova)</Name>
                        <Level>12</Level>
                        <Latitude>47.00367</Latitude>
                        <Longitude>28.907089</Longitude>
                    </Point>
                    <Point>
                        <Name>Conakry (Guinea)</Name>
                        <Level>11</Level>
                        <Latitude>9.641185</Latitude>
                        <Longitude>-13.578401</Longitude>
                    </Point>
                    <Point>
                        <Name>Copenhagen (Denmark)</Name>
                        <Level>11</Level>
                        <Latitude>55.6761111111</Latitude>
                        <Longitude>12.5683333333</Longitude>
                    </Point>
                    <Point>
                        <Name>Dakar (Senegal)</Name>
                        <Level>12</Level>
                        <Latitude>14.711025</Latitude>
                        <Longitude>-17.465825</Longitude>
                    </Point>
                    <Point>
                        <Name>Damascus (Syria)</Name>
                        <Level>12</Level>
                        <Latitude>33.513807</Latitude>
                        <Longitude>36.276528</Longitude>
                    </Point>
                    <Point>
                        <Name>Dhaka (Bangladesh)</Name>
                        <Level>12</Level>
                        <Latitude>23.810332</Latitude>
                        <Longitude>90.412518</Longitude>
                    </Point>
                    <Point>
                        <Name>Dili (Timor-Leste)</Name>
                        <Level>13</Level>
                        <Latitude>-8.556856</Latitude>
                        <Longitude>125.560314</Longitude>
                    </Point>
                    <Point>
                        <Name>Dodoma (Tanzania)</Name>
                        <Level>13</Level>
                        <Latitude>-6.162959</Latitude>
                        <Longitude>35.751607</Longitude>
                    </Point>
                    <Point>
                        <Name>Doha (Qatar)</Name>
                        <Level>11</Level>
                        <Latitude>25.285447</Latitude>
                        <Longitude>51.53104</Longitude>
                    </Point>
                    <Point>
                        <Name>Dublin (Ireland)</Name>
                        <Level>11</Level>
                        <Latitude>53.34419</Latitude>
                        <Longitude>-6.26751</Longitude>
                    </Point>
                    <Point>
                        <Name>Dushanbe (Tajikistan)</Name>
                        <Level>12</Level>
                        <Latitude>38.559772</Latitude>
                        <Longitude>68.787038</Longitude>
                    </Point>
                    <Point>
                        <Name>Freetown (Sierra Leone)</Name>
                        <Level>13</Level>
                        <Latitude>8.465677</Latitude>
                        <Longitude>-13.231722</Longitude>
                    </Point>
                    <Point>
                        <Name>Funafuti (Tuvalu)</Name>
                        <Level>15</Level>
                        <Latitude>-8.521147</Latitude>
                        <Longitude>179.196193</Longitude>
                    </Point>
                    <Point>
                        <Name>Gaborone (Botswana)</Name>
                        <Level>12</Level>
                        <Latitude>-24.628208</Latitude>
                        <Longitude>25.923147</Longitude>
                    </Point>
                    <Point>
                        <Name>Georgetown (Guyana)</Name>
                        <Level>12</Level>
                        <Latitude>6.801279</Latitude>
                        <Longitude>-58.155125</Longitude>
                    </Point>
                    <Point>
                        <Name>Guatemala City (Guatemala)</Name>
                        <Level>12</Level>
                        <Latitude>14.634915</Latitude>
                        <Longitude>-90.506882</Longitude>
                    </Point>
                    <Point>
                        <Name>Hanoi (Vietnam)</Name>
                        <Level>13</Level>
                        <Latitude>21.027764</Latitude>
                        <Longitude>105.83416</Longitude>
                    </Point>
                    <Point>
                        <Name>Harare (Zimbabwe)</Name>
                        <Level>12</Level>
                        <Latitude>-17.825166</Latitude>
                        <Longitude>31.03351</Longitude>
                    </Point>
                    <Point>
                        <Name>Havana (Cuba)</Name>
                        <Level>12</Level>
                        <Latitude>23.113592</Latitude>
                        <Longitude>-82.366596</Longitude>
                    </Point>
                    <Point>
                        <Name>Helsinki (Finland)</Name>
                        <Level>11</Level>
                        <Latitude>60.1708333333</Latitude>
                        <Longitude>24.9375</Longitude>
                    </Point>
                    <Point>
                        <Name>Honiara (Solomon Islands)</Name>
                        <Level>14</Level>
                        <Latitude>-9.445638</Latitude>
                        <Longitude>159.9729</Longitude>
                    </Point>
                    <Point>
                        <Name>Islamabad (Pakistan)</Name>
                        <Level>12</Level>
                        <Latitude>33.729388</Latitude>
                        <Longitude>73.093146</Longitude>
                    </Point>
                    <Point>
                        <Name>Jakarta (Indonesia)</Name>
                        <Level>11</Level>
                        <Latitude>-6.17511</Latitude>
                        <Longitude>106.865039</Longitude>
                    </Point>
                    <Point>
                        <Name>Jerusalem (East) (Palestine)</Name>
                        <Level>12</Level>
                        <Latitude>31.768319</Latitude>
                        <Longitude>35.25371</Longitude>
                    </Point>
                    <Point>
                        <Name>Jerusalem (Israel)</Name>
                        <Level>12</Level>
                        <Latitude>31.768319</Latitude>
                        <Longitude>35.21371</Longitude>
                    </Point>
                    <Point>
                        <Name>Juba (South Sudan)</Name>
                        <Level>13</Level>
                        <Latitude>4.859363</Latitude>
                        <Longitude>31.57125</Longitude>
                    </Point>
                    <Point>
                        <Name>Kabul (Afghanistan)</Name>
                        <Level>11</Level>
                        <Latitude>34.543896</Latitude>
                        <Longitude>69.160652</Longitude>
                    </Point>
                    <Point>
                        <Name>Kampala (Uganda)</Name>
                        <Level>12</Level>
                        <Latitude>0.347596</Latitude>
                        <Longitude>32.58252</Longitude>
                    </Point>
                    <Point>
                        <Name>Kathmandu (Nepal)</Name>
                        <Level>12</Level>
                        <Latitude>27.717245</Latitude>
                        <Longitude>85.32396</Longitude>
                    </Point>
                    <Point>
                        <Name>Khartoum (Sudan)</Name>
                        <Level>11</Level>
                        <Latitude>15.500654</Latitude>
                        <Longitude>32.559899</Longitude>
                    </Point>
                    <Point>
                        <Name>Kigali (Rwanda)</Name>
                        <Level>12</Level>
                        <Latitude>-1.970579</Latitude>
                        <Longitude>30.104429</Longitude>
                    </Point>
                    <Point>
                        <Name>Kingston (Jamaica)</Name>
                        <Level>12</Level>
                        <Latitude>18.017874</Latitude>
                        <Longitude>-76.809904</Longitude>
                    </Point>
                    <Point>
                        <Name>Kingstown (Saint Vincent and the Grenadines)</Name>
                        <Level>14</Level>
                        <Latitude>13.160025</Latitude>
                        <Longitude>-61.224816</Longitude>
                    </Point>
                    <Point>
                        <Name>Kinshasa (Democratic Republic of the Congo)</Name>
                        <Level>12</Level>
                        <Latitude>-4.441931</Latitude>
                        <Longitude>15.266293</Longitude>
                    </Point>
                    <Point>
                        <Name>Kuala Lumpur (Malaysia)</Name>
                        <Level>11</Level>
                        <Latitude>3.139003</Latitude>
                        <Longitude>101.686855</Longitude>
                    </Point>
                    <Point>
                        <Name>Kuwait City (Kuwait)</Name>
                        <Level>12</Level>
                        <Latitude>29.375859</Latitude>
                        <Longitude>47.977405</Longitude>
                    </Point>
                    <Point>
                        <Name>Kyiv (Ukraine)</Name>
                        <Level>11</Level>
                        <Latitude>50.4501</Latitude>
                        <Longitude>30.5234</Longitude>
                    </Point>
                    <Point>
                        <Name>La Paz (seat of government) (Bolivia)</Name>
                        <Level>12</Level>
                        <Latitude>-16.489689</Latitude>
                        <Longitude>-68.119294</Longitude>
                    </Point>
                    <Point>
                        <Name>Libreville (Gabon)</Name>
                        <Level>12</Level>
                        <Latitude>0.416198</Latitude>
                        <Longitude>9.467268</Longitude>
                    </Point>
                    <Point>
                        <Name>Lilongwe (Malawi)</Name>
                        <Level>12</Level>
                        <Latitude>-13.962612</Latitude>
                        <Longitude>33.774119</Longitude>
                    </Point>
                    <Point>
                        <Name>Lima (Peru)</Name>
                        <Level>11</Level>
                        <Latitude>-12.046373</Latitude>
                        <Longitude>-77.042754</Longitude>
                    </Point>
                    <Point>
                        <Name>Lisbon (Portugal)</Name>
                        <Level>11</Level>
                        <Latitude>38.736946</Latitude>
                        <Longitude>-9.142685</Longitude>
                    </Point>
                    <Point>
                        <Name>Ljubljana (Slovenia)</Name>
                        <Level>12</Level>
                        <Latitude>46.0569465</Latitude>
                        <Longitude>14.5057515</Longitude>
                    </Point>
                    <Point>
                        <Name>Lobamba (legislative, royal) (Swaziland)</Name>
                        <Level>14</Level>
                        <Latitude>-26.4462145453</Latitude>
                        <Longitude>31.2057209015</Longitude>
                    </Point>
                    <Point>
                        <Name>Lomé (Togo)</Name>
                        <Level>12</Level>
                        <Latitude>6.172497</Latitude>
                        <Longitude>1.231362</Longitude>
                    </Point>
                    <Point>
                        <Name>London (United Kingdom)</Name>
                        <Level>10</Level>
                        <Latitude>51.5073509</Latitude>
                        <Longitude>-0.1277583</Longitude>
                    </Point>
                    <Point>
                        <Name>Luanda (Angola)</Name>
                        <Level>12</Level>
                        <Latitude>-8.838333</Latitude>
                        <Longitude>13.234444</Longitude>
                    </Point>
                    <Point>
                        <Name>Lusaka (Zambia)</Name>
                        <Level>12</Level>
                        <Latitude>-15.387526</Latitude>
                        <Longitude>28.322817</Longitude>
                    </Point>
                    <Point>
                        <Name>Luxembourg (Luxembourg)</Name>
                        <Level>12</Level>
                        <Latitude>49.611622</Latitude>
                        <Longitude>6.131935</Longitude>
                    </Point>
                    <Point>
                        <Name>Madrid (Spain)</Name>
                        <Level>11</Level>
                        <Latitude>40.416775</Latitude>
                        <Longitude>-3.70379</Longitude>
                    </Point>
                    <Point>
                        <Name>Majuro (Marshall Islands)</Name>
                        <Level>15</Level>
                        <Latitude>7.09124</Latitude>
                        <Longitude>171.381204</Longitude>
                    </Point>
                    <Point>
                        <Name>Malabo (de jure) (Equatorial Guinea)</Name>
                        <Level>13</Level>
                        <Latitude>3.750412</Latitude>
                        <Longitude>8.737104</Longitude>
                    </Point>
                    <Point>
                        <Name>Male (Maldives)</Name>
                        <Level>15</Level>
                        <Latitude>4.175496</Latitude>
                        <Longitude>73.509347</Longitude>
                    </Point>
                    <Point>
                        <Name>Managua (Nicaragua)</Name>
                        <Level>12</Level>
                        <Latitude>12.114993</Latitude>
                        <Longitude>-86.236174</Longitude>
                    </Point>
                    <Point>
                        <Name>Manama (Bahrain)</Name>
                        <Level>12</Level>
                        <Latitude>26.216667</Latitude>
                        <Longitude>50.583333</Longitude>
                    </Point>
                    <Point>
                        <Name>Manila (Philippines)</Name>
                        <Level>12</Level>
                        <Latitude>14.599512</Latitude>
                        <Longitude>120.984219</Longitude>
                    </Point>
                    <Point>
                        <Name>Maputo (Mozambique)</Name>
                        <Level>11</Level>
                        <Latitude>-25.891968</Latitude>
                        <Longitude>32.605135</Longitude>
                    </Point>
                    <Point>
                        <Name>Maseru (Lesotho)</Name>
                        <Level>12</Level>
                        <Latitude>-29.363219</Latitude>
                        <Longitude>27.51436</Longitude>
                    </Point>
                    <Point>
                        <Name>Mbabane (administrative) (Swaziland)</Name>
                        <Level>13</Level>
                        <Latitude>-26.305448</Latitude>
                        <Longitude>31.136672</Longitude>
                    </Point>
                    <Point>
                        <Name>Mexico City (Mexico)</Name>
                        <Level>11</Level>
                        <Latitude>19.432608</Latitude>
                        <Longitude>-99.133208</Longitude>
                    </Point>
                    <Point>
                        <Name>Minsk (Belarus)</Name>
                        <Level>11</Level>
                        <Latitude>53.9</Latitude>
                        <Longitude>27.5666666667</Longitude>
                    </Point>
                    <Point>
                        <Name>Mogadishu (Somalia)</Name>
                        <Level>13</Level>
                        <Latitude>2.046934</Latitude>
                        <Longitude>45.318162</Longitude>
                    </Point>
                    <Point>
                        <Name>Monaco (Monaco)</Name>
                        <Level>14</Level>
                        <Latitude>43.7384176</Latitude>
                        <Longitude>7.4246158</Longitude>
                    </Point>
                    <Point>
                        <Name>Monrovia (Liberia)</Name>
                        <Level>12</Level>
                        <Latitude>6.290743</Latitude>
                        <Longitude>-10.760524</Longitude>
                    </Point>
                    <Point>
                        <Name>Montevideo (Uruguay)</Name>
                        <Level>12</Level>
                        <Latitude>-34.901113</Latitude>
                        <Longitude>-56.164531</Longitude>
                    </Point>
                    <Point>
                        <Name>Moroni (Comoros)</Name>
                        <Level>13</Level>
                        <Latitude>-11.717216</Latitude>
                        <Longitude>43.247315</Longitude>
                    </Point>
                    <Point>
                        <Name>Moscow (Russia)</Name>
                        <Level>10</Level>
                        <Latitude>55.7496</Latitude>
                        <Longitude>37.6237</Longitude>
                    </Point>
                    <Point>
                        <Name>Muscat (Oman)</Name>
                        <Level>11</Level>
                        <Latitude>23.58589</Latitude>
                        <Longitude>58.405923</Longitude>
                    </Point>
                    <Point>
                        <Name>N'Djamena (Chad)</Name>
                        <Level>12</Level>
                        <Latitude>12.134846</Latitude>
                        <Longitude>15.055742</Longitude>
                    </Point>
                    <Point>
                        <Name>Nairobi (Kenya)</Name>
                        <Level>11</Level>
                        <Latitude>-1.292066</Latitude>
                        <Longitude>36.821946</Longitude>
                    </Point>
                    <Point>
                        <Name>Nassau (Bahamas)</Name>
                        <Level>12</Level>
                        <Latitude>25.047984</Latitude>
                        <Longitude>-77.355413</Longitude>
                    </Point>
                    <Point>
                        <Name>Naypyidaw (Myanmar (Burma))</Name>
                        <Level>12</Level>
                        <Latitude>19.763306</Latitude>
                        <Longitude>96.07851</Longitude>
                    </Point>
                    <Point>
                        <Name>New Delhi (India)</Name>
                        <Level>10</Level>
                        <Latitude>28.613939</Latitude>
                        <Longitude>77.209021</Longitude>
                    </Point>
                    <Point>
                        <Name>Ngerulmud (Palau)</Name>
                        <Level>17</Level>
                        <Latitude>7.500383</Latitude>
                        <Longitude>134.624289</Longitude>
                    </Point>
                    <Point>
                        <Name>Niamey (Niger)</Name>
                        <Level>12</Level>
                        <Latitude>13.511596</Latitude>
                        <Longitude>2.125385</Longitude>
                    </Point>
                    <Point>
                        <Name>Nicosia (Cyprus)</Name>
                        <Level>12</Level>
                        <Latitude>35.1666666667</Latitude>
                        <Longitude>33.3666666667</Longitude>
                    </Point>
                    <Point>
                        <Name>Nouakchott (Mauritania)</Name>
                        <Level>12</Level>
                        <Latitude>18.07353</Latitude>
                        <Longitude>-15.958237</Longitude>
                    </Point>
                    <Point>
                        <Name>Nukuʻalofa (Tonga)</Name>
                        <Level>13</Level>
                        <Latitude>-21.139342</Latitude>
                        <Longitude>-175.204947</Longitude>
                    </Point>
                    <Point>
                        <Name>Oslo (Norway)</Name>
                        <Level>11</Level>
                        <Latitude>59.9138688</Latitude>
                        <Longitude>10.7522454</Longitude>
                    </Point>
                    <Point>
                        <Name>Ottawa (Canada)</Name>
                        <Level>11</Level>
                        <Latitude>45.42153</Latitude>
                        <Longitude>-75.697193</Longitude>
                    </Point>
                    <Point>
                        <Name>Ouagadougou (Burkina Faso)</Name>
                        <Level>11</Level>
                        <Latitude>12.371428</Latitude>
                        <Longitude>-1.51966</Longitude>
                    </Point>
                    <Point>
                        <Name>Oyala (seat of government) (Equatorial Guinea)</Name>
                        <Level>13</Level>
                        <Latitude>1.589041</Latitude>
                        <Longitude>10.822573</Longitude>
                    </Point>
                    <Point>
                        <Name>Palikir (Micronesia)</Name>
                        <Level>15</Level>
                        <Latitude>6.920675523</Latitude>
                        <Longitude>158.162612915</Longitude>
                    </Point>
                    <Point>
                        <Name>Panama City (Panama)</Name>
                        <Level>12</Level>
                        <Latitude>8.982379</Latitude>
                        <Longitude>-79.51987</Longitude>
                    </Point>
                    <Point>
                        <Name>Paramaribo (Suriname)</Name>
                        <Level>12</Level>
                        <Latitude>5.852036</Latitude>
                        <Longitude>-55.203828</Longitude>
                    </Point>
                    <Point>
                        <Name>Paris (France)</Name>
                        <Level>10</Level>
                        <Latitude>48.8566666667</Latitude>
                        <Longitude>2.3508333333</Longitude>
                    </Point>
                    <Point>
                        <Name>Phnom Penh (Cambodia)</Name>
                        <Level>12</Level>
                        <Latitude>11.544873</Latitude>
                        <Longitude>104.892167</Longitude>
                    </Point>
                    <Point>
                        <Name>Podgorica (Montenegro)</Name>
                        <Level>13</Level>
                        <Latitude>42.441286</Latitude>
                        <Longitude>19.262892</Longitude>
                    </Point>
                    <Point>
                        <Name>Port Louis (Mauritius)</Name>
                        <Level>13</Level>
                        <Latitude>-20.160891</Latitude>
                        <Longitude>57.501222</Longitude>
                    </Point>
                    <Point>
                        <Name>Port Moresby (Papua New Guinea)</Name>
                        <Level>12</Level>
                        <Latitude>-9.478012</Latitude>
                        <Longitude>147.150654</Longitude>
                    </Point>
                    <Point>
                        <Name>Port Vila (Vanuatu)</Name>
                        <Level>14</Level>
                        <Latitude>-17.733251</Latitude>
                        <Longitude>168.327325</Longitude>
                    </Point>
                    <Point>
                        <Name>Port of Spain (Trinidad and Tobago)</Name>
                        <Level>13</Level>
                        <Latitude>10.654901</Latitude>
                        <Longitude>-61.501926</Longitude>
                    </Point>
                    <Point>
                        <Name>Port-au-Prince (Haiti)</Name>
                        <Level>12</Level>
                        <Latitude>18.594395</Latitude>
                        <Longitude>-72.307433</Longitude>
                    </Point>
                    <Point>
                        <Name>Porto-Novo (Benin)</Name>
                        <Level>13</Level>
                        <Latitude>6.496857</Latitude>
                        <Longitude>2.628852</Longitude>
                    </Point>
                    <Point>
                        <Name>Prague (Czech Republic)</Name>
                        <Level>12</Level>
                        <Latitude>50.0872222222</Latitude>
                        <Longitude>14.4211111111</Longitude>
                    </Point>
                    <Point>
                        <Name>Praia (Cabo Verde)</Name>
                        <Level>13</Level>
                        <Latitude>14.93305</Latitude>
                        <Longitude>-23.513327</Longitude>
                    </Point>
                    <Point>
                        <Name>Pretoria (administrative) (South Africa)</Name>
                        <Level>11</Level>
                        <Latitude>-25.747868</Latitude>
                        <Longitude>28.229271</Longitude>
                    </Point>
                    <Point>
                        <Name>Pristina (Kosovo)</Name>
                        <Level>12</Level>
                        <Latitude>42.6666666667</Latitude>
                        <Longitude>21.1666666667</Longitude>
                    </Point>
                    <Point>
                        <Name>Pyongyang (North Korea)</Name>
                        <Level>12</Level>
                        <Latitude>39.039219</Latitude>
                        <Longitude>125.762524</Longitude>
                    </Point>
                    <Point>
                        <Name>Quito (Ecuador)</Name>
                        <Level>11</Level>
                        <Latitude>-0.180653</Latitude>
                        <Longitude>-78.467838</Longitude>
                    </Point>
                    <Point>
                        <Name>Rabat (Morocco)</Name>
                        <Level>12</Level>
                        <Latitude>33.97159</Latitude>
                        <Longitude>-6.849813</Longitude>
                    </Point>
                    <Point>
                        <Name>Reykjavik (Iceland)</Name>
                        <Level>11</Level>
                        <Latitude>64.135491</Latitude>
                        <Longitude>-21.896149</Longitude>
                    </Point>
                    <Point>
                        <Name>Riga (Latvia)</Name>
                        <Level>11</Level>
                        <Latitude>56.9333333333</Latitude>
                        <Longitude>24.1</Longitude>
                    </Point>
                    <Point>
                        <Name>Riyadh (Saudi Arabia)</Name>
                        <Level>11</Level>
                        <Latitude>24.713552</Latitude>
                        <Longitude>46.675296</Longitude>
                    </Point>
                    <Point>
                        <Name>Rome (Italy)</Name>
                        <Level>11</Level>
                        <Latitude>41.890169</Latitude>
                        <Longitude>12.492269</Longitude>
                    </Point>
                    <Point>
                        <Name>Saint George's (Grenada)</Name>
                        <Level>14</Level>
                        <Latitude>12.056097</Latitude>
                        <Longitude>-61.7488</Longitude>
                    </Point>
                    <Point>
                        <Name>Saint John's (Antigua and Barbuda)</Name>
                        <Level>12</Level>
                        <Latitude>45.273918</Latitude>
                        <Longitude>-66.067657</Longitude>
                    </Point>
                    <Point>
                        <Name>San Jose (Costa Rica)</Name>
                        <Level>12</Level>
                        <Latitude>9.928069</Latitude>
                        <Longitude>-84.090725</Longitude>
                    </Point>
                    <Point>
                        <Name>San Marino (San Marino)</Name>
                        <Level>15</Level>
                        <Latitude>43.94236</Latitude>
                        <Longitude>12.457777</Longitude>
                    </Point>
                    <Point>
                        <Name>San Salvador (El Salvador)</Name>
                        <Level>12</Level>
                        <Latitude>13.69294</Latitude>
                        <Longitude>-89.218191</Longitude>
                    </Point>
                    <Point>
                        <Name>Sana'a (Yemen)</Name>
                        <Level>12</Level>
                        <Latitude>15.369445</Latitude>
                        <Longitude>44.191007</Longitude>
                    </Point>
                    <Point>
                        <Name>Santiago (Chile)</Name>
                        <Level>11</Level>
                        <Latitude>-33.44889</Latitude>
                        <Longitude>-70.669265</Longitude>
                    </Point>
                    <Point>
                        <Name>Sarajevo (Bosnia and Herzegovina)</Name>
                        <Level>12</Level>
                        <Latitude>43.8666666667</Latitude>
                        <Longitude>18.4166666667</Longitude>
                    </Point>
                    <Point>
                        <Name>Seoul (South Korea)</Name>
                        <Level>11</Level>
                        <Latitude>37.566535</Latitude>
                        <Longitude>126.977969</Longitude>
                    </Point>
                    <Point>
                        <Name>Singapore (Singapore)</Name>
                        <Level>11</Level>
                        <Latitude>1.352083</Latitude>
                        <Longitude>103.819836</Longitude>
                    </Point>
                    <Point>
                        <Name>Skopje (Macedonia)</Name>
                        <Level>12</Level>
                        <Latitude>41.99735</Latitude>
                        <Longitude>21.428</Longitude>
                    </Point>
                    <Point>
                        <Name>Sofia (Bulgaria)</Name>
                        <Level>11</Level>
                        <Latitude>42.7</Latitude>
                        <Longitude>23.3333333333</Longitude>
                    </Point>
                    <Point>
                        <Name>Sri Jayawardenepura Kotte (Sri Lanka)</Name>
                        <Level>12</Level>
                        <Latitude>6.894003</Latitude>
                        <Longitude>79.905156</Longitude>
                    </Point>
                    <Point>
                        <Name>Stockholm (Sweden)</Name>
                        <Level>11</Level>
                        <Latitude>59.334591</Latitude>
                        <Longitude>18.06324</Longitude>
                    </Point>
                    <Point>
                        <Name>Sucre (de jure) (Bolivia)</Name>
                        <Level>13</Level>
                        <Latitude>-19.019585</Latitude>
                        <Longitude>-65.261961</Longitude>
                    </Point>
                    <Point>
                        <Name>Suva (Fiji)</Name>
                        <Level>13</Level>
                        <Latitude>-18.124809</Latitude>
                        <Longitude>178.450079</Longitude>
                    </Point>
                    <Point>
                        <Name>São Tomé (Sao Tome and Principe)</Name>
                        <Level>13</Level>
                        <Latitude>0.330192</Latitude>
                        <Longitude>6.733343</Longitude>
                    </Point>
                    <Point>
                        <Name>Taipei (Taiwan)</Name>
                        <Level>12</Level>
                        <Latitude>25.032969</Latitude>
                        <Longitude>121.565418</Longitude>
                    </Point>
                    <Point>
                        <Name>Tallinn (Estonia)</Name>
                        <Level>11</Level>
                        <Latitude>59.4372222222</Latitude>
                        <Longitude>24.7452777778</Longitude>
                    </Point>
                    <Point>
                        <Name>Tarawa (Kiribati)</Name>
                        <Level>16</Level>
                        <Latitude>1.3278</Latitude>
                        <Longitude>172.97696</Longitude>
                    </Point>
                    <Point>
                        <Name>Tashkent (Uzbekistan)</Name>
                        <Level>12</Level>
                        <Latitude>41.299496</Latitude>
                        <Longitude>69.240073</Longitude>
                    </Point>
                    <Point>
                        <Name>Tbilisi (Georgia)</Name>
                        <Level>11</Level>
                        <Latitude>41.7166666667</Latitude>
                        <Longitude>44.7833333333</Longitude>
                    </Point>
                    <Point>
                        <Name>Tegucigalpa (Honduras)</Name>
                        <Level>12</Level>
                        <Latitude>14.072275</Latitude>
                        <Longitude>-87.192136</Longitude>
                    </Point>
                    <Point>
                        <Name>Tehran (Iran)</Name>
                        <Level>11</Level>
                        <Latitude>35.689197</Latitude>
                        <Longitude>51.388974</Longitude>
                    </Point>
                    <Point>
                        <Name>Thimphu (Bhutan)</Name>
                        <Level>13</Level>
                        <Latitude>27.472792</Latitude>
                        <Longitude>89.639286</Longitude>
                    </Point>
                    <Point>
                        <Name>Tirana (Albania)</Name>
                        <Level>13</Level>
                        <Latitude>41.33</Latitude>
                        <Longitude>19.82</Longitude>
                    </Point>
                    <Point>
                        <Name>Tokyo (Japan)</Name>
                        <Level>9</Level>
                        <Latitude>35.689487</Latitude>
                        <Longitude>139.691706</Longitude>
                    </Point>
                    <Point>
                        <Name>Tripoli (Libya)</Name>
                        <Level>12</Level>
                        <Latitude>32.887209</Latitude>
                        <Longitude>13.191338</Longitude>
                    </Point>
                    <Point>
                        <Name>Tunis (Tunisia)</Name>
                        <Level>12</Level>
                        <Latitude>36.806495</Latitude>
                        <Longitude>10.181532</Longitude>
                    </Point>
                    <Point>
                        <Name>Ulaanbaatar (Mongolia)</Name>
                        <Level>12</Level>
                        <Latitude>47.886399</Latitude>
                        <Longitude>106.905744</Longitude>
                    </Point>
                    <Point>
                        <Name>Vaduz (Liechtenstein)</Name>
                        <Level>13</Level>
                        <Latitude>47.14137</Latitude>
                        <Longitude>9.5207</Longitude>
                    </Point>
                    <Point>
                        <Name>Valletta (Malta)</Name>
                        <Level>13</Level>
                        <Latitude>35.89891</Latitude>
                        <Longitude>14.51455</Longitude>
                    </Point>
                    <Point>
                        <Name>Vatican City (Vatican City)</Name>
                        <Level>16</Level>
                        <Latitude>41.902916</Latitude>
                        <Longitude>12.453389</Longitude>
                    </Point>
                    <Point>
                        <Name>Victoria (Seychelles)</Name>
                        <Level>15</Level>
                        <Latitude>-4.619143</Latitude>
                        <Longitude>55.451315</Longitude>
                    </Point>
                    <Point>
                        <Name>Vienna (Austria)</Name>
                        <Level>12</Level>
                        <Latitude>48.2083333333</Latitude>
                        <Longitude>16.3730555556</Longitude>
                    </Point>
                    <Point>
                        <Name>Vientiane (Laos)</Name>
                        <Level>12</Level>
                        <Latitude>17.975706</Latitude>
                        <Longitude>102.633104</Longitude>
                    </Point>
                    <Point>
                        <Name>Vilnius (Lithuania)</Name>
                        <Level>11</Level>
                        <Latitude>54.6871555</Latitude>
                        <Longitude>25.2796514</Longitude>
                    </Point>
                    <Point>
                        <Name>Warsaw (Poland)</Name>
                        <Level>12</Level>
                        <Latitude>52.2322222222</Latitude>
                        <Longitude>21.0083333333</Longitude>
                    </Point>
                    <Point>
                        <Name>Washington, D.C. (United States of America)</Name>
                        <Level>12</Level>
                        <Latitude>38.907192</Latitude>
                        <Longitude>-77.036871</Longitude>
                    </Point>
                    <Point>
                        <Name>Wellington (New Zealand)</Name>
                        <Level>12</Level>
                        <Latitude>-41.28646</Latitude>
                        <Longitude>174.776236</Longitude>
                    </Point>
                    <Point>
                        <Name>Windhoek (Namibia)</Name>
                        <Level>12</Level>
                        <Latitude>-22.560881</Latitude>
                        <Longitude>17.065755</Longitude>
                    </Point>
                    <Point>
                        <Name>Yamoussoukro (Cote d'Ivoire)</Name>
                        <Level>12</Level>
                        <Latitude>6.827623</Latitude>
                        <Longitude>-5.289343</Longitude>
                    </Point>
                    <Point>
                        <Name>Yaounde (Cameroon)</Name>
                        <Level>12</Level>
                        <Latitude>3.848032</Latitude>
                        <Longitude>11.502075</Longitude>
                    </Point>
                    <Point>
                        <Name>Yaren District (Nauru)</Name>
                        <Level>14</Level>
                        <Latitude>-0.546686</Latitude>
                        <Longitude>166.921091</Longitude>
                    </Point>
                    <Point>
                        <Name>Yerevan (Armenia)</Name>
                        <Level>12</Level>
                        <Latitude>40.1833333333</Latitude>
                        <Longitude>44.5166666667</Longitude>
                    </Point>
                    <Point>
                        <Name>Zagreb (Croatia)</Name>
                        <Level>11</Level>
                        <Latitude>45.8166666667</Latitude>
                        <Longitude>15.9888888889</Longitude>
                    </Point>
                </Points>
            </Group>
        </Groups>
    </CenterPoints>
</OSMViewerCenterPoints>
