<?xml version="1.0" encoding="utf-8"?>
<OSMViewer>
    <CenterPoints>
        <Points>
            <Point>
                <Name>Berlin</Name>
                <Level>11</Level>
                <Latitude>52.5167</Latitude>
                <Longitude>13.4</Longitude>
            </Point>
            <Point>
                <Name>Bratislava</Name>
                <Level>12</Level>
                <Latitude>48.1439</Latitude>
                <Longitude>17.1097</Longitude>
            </Point>
            <Point>
                <Name>Budapest</Name>
                <Level>12</Level>
                <Latitude>47.4719</Latitude>
                <Longitude>19.0503</Longitude>
            </Point>
            <Point>
                <Name>Praha</Name>
                <Level>12</Level>
                <Latitude>50.0872</Latitude>
                <Longitude>14.4211</Longitude>
            </Point>
            <Point>
                <Name>Varsava</Name>
                <Level>12</Level>
                <Latitude>52.2322</Latitude>
                <Longitude>21.0083</Longitude>
            </Point>
            <Point>
                <Name>Vieden</Name>
                <Level>12</Level>
                <Latitude>48.2083</Latitude>
                <Longitude>16.3731</Longitude>
            </Point>
        </Points>
    </CenterPoints>
</OSMViewer>
 
